0
$GNRMC,023647.50,A,3903.91943716,N,11825.63854517,E,0.064,227.9,100817,0.0,E,D*23
$GNVTG,227.949,T,227.949,M,0.06375,N,0.11806,K,D*31
$GNHDT,115.3364,T*1C
$GNGGA,023647.60,3903.91943687,N,11825.63854616,E,4,13,1.3,2.4722,M,-3.3206,M,00,0275*69
$GNRMC,023647.60,A,3903.91943687,N,11825.63854616,E,0.030,110.9,100817,0.0,E,D*2D
$GNVTG,110.906,T,110.906,M,0.02974,N,0.05508,K,D*38
$GNHDT,115.2656,T*19
$GNGGA,023647.70,3903.91943680,N,11825.63854655,E,4,13,1.3,2.4746,M,-3.3206,M,00,0275*6A
$GNRMC,023647.70,A,3903.91943680,N,11825.63854655,E,0.011,101.8,100817,0.0,E,D*2E
$GNVTG,101.766,T,101.766,M,0.01135,N,0.02102,K,D*3F
$GNHDT,115.5271,T*1F
$GNGGA,023647.80,3903.91943558,N,11825.63854626,E,4,13,1.3,2.4781,M,-3.3206,M,00,0275*6C
$GNRMC,023647.80,A,3903.91943558,N,11825.63854626,E,0.045,190.8,100817,0.0,E,D*2A
$GNVTG,190.777,T,190.777,M,0.04481,N,0.08299,K,D*3B
$GNHDT,115.1367,T*1D
$GNGGA,023647.90,3903.91943725,N,11825.63854593,E,4,13,1.3,2.4690,M,-3.3206,M,00,0275*69
$GNRMC,023647.90,A,3903.91943725,N,11825.63854593,E,0.061,351.4,100817,0.0,E,D*2B
$GNVTG,351.415,T,351.415,M,0.06078,N,0.11257,K,D*31
$GNHDT,115.2561,T*1E
$GNGGA,023648.00,3903.91943631,N,11825.63854635,E,4,13,1.3,2.4739,M,-3.3206,M,01,0275*67
$GNZDA,023648.00,10,08,2017,,*7E
$GNRMC,023648.00,A,3903.91943631,N,11825.63854635,E,0.036,161.0,100817,0.0,E,D*21
$GNVTG,161.020,T,161.020,M,0.03588,N,0.06644,K,D*3E
$GNHDT,115.3790,T*13
$GNGGA,023648.10,3903.91943710,N,11825.63854632,E,4,13,1.3,2.4744,M,-3.3206,M,01,0275*69
$GNRMC,023648.10,A,3903.91943710,N,11825.63854632,E,0.028,358.6,100817,0.0,E,D*24
$GNVTG,358.578,T,358.578,M,0.02845,N,0.05269,K,D*3B
$GNHDT,115.1733,T*18
$GNGGA,023648.20,3903.91943605,N,11825.63854645,E,4,13,1.3,2.4739,M,-3.3206,M,01,0275*65
$GNRMC,023648.20,A,3903.91943605,N,11825.63854645,E,0.038,174.7,100817,0.0,E,D*2E
$GNVTG,174.730,T,174.730,M,0.03780,N,0.07000,K,D*33
$GNHDT,115.1979,T*18
$GNGGA,023648.30,3903.91943636,N,11825.63854662,E,4,13,1.3,2.4755,M,-3.3206,M,01,0275*6B
$GNRMC,023648.30,A,3903.91943636,N,11825.63854662,E,0.012,24.0,100817,0.0,E,D*11
$GNVTG,23.990,T,23.990,M,0.01222,N,0.02262,K,D*3F
$GNHDT,115.5124,T*1C
$GNGGA,023648.40,3903.91943601,N,11825.63854614,E,4,13,1.3,2.4767,M,-3.3206,M,01,0275*68
$GNRMC,023648.40,A,3903.91943601,N,11825.63854614,E,0.018,226.8,100817,0.0,E,D*21
$GNVTG,226.775,T,226.775,M,0.01844,N,0.03416,K,D*31
$GNHDT,115.3975,T*16
$GNGGA,023648.50,3903.91943737,N,11825.63854645,E,4,13,1.3,2.4733,M,-3.3206,M,00,0275*69
$GNRMC,023648.50,A,3903.91943737,N,11825.63854645,E,0.050,9.9,100817,0.0,E,D*22
$GNVTG,9.944,T,9.944,M,0.04985,N,0.09231,K,D*31
$GNHDT,115.5122,T*1A
$GNGGA,023648.60,3903.91943859,N,11825.63854806,E,4,13,1.3,2.4691,M,-3.3206,M,00,0275*6D
$GNRMC,023648.60,A,3903.91943859,N,11825.63854806,E,0.063,45.9,100817,0.0,E,D*17
$GNVTG,45.883,T,45.883,M,0.06285,N,0.11640,K,D*33
$GNHDT,115.5892,T*18
$GNGGA,023648.70,3903.91943967,N,11825.63854722,E,4,13,1.3,2.4619,M,-3.3206,M,00,0275*69
$GNRMC,023648.70,A,3903.91943967,N,11825.63854722,E,0.045,328.7,100817,0.0,E,D*21
$GNVTG,328.686,T,328.686,M,0.04533,N,0.08396,K,D*3D
$GNHDT,115.3046,T*1F
$GNGGA,023648.80,3903.91943775,N,11825.63854848,E,4,13,1.3,2.4708,M,-3.3206,M,00,0275*69
$GNRMC,023648.80,A,3903.91943775,N,11825.63854848,E,0.077,152.9,100817,0.0,E,D*20
$GNVTG,152.904,T,152.904,M,0.07750,N,0.14352,K,D*3C
$GNHDT,115.1895,T*1B
$GNGGA,023648.90,3903.91943832,N,11825.63854729,E,4,13,1.3,2.4645,M,-3.3206,M,00,0275*64
$GNRMC,023648.90,A,3903.91943832,N,11825.63854729,E,0.039,301.9,100817,0.0,E,D*2B
$GNVTG,301.866,T,301.866,M,0.03918,N,0.07257,K,D*3C
$GNHDT,115.5692,T*16
$GNGGA,023649.00,3903.91943936,N,11825.63854675,E,4,13,1.3,2.4664,M,-3.3206,M,01,0275*63
$GNZDA,023649.00,10,08,2017,,*7F
$GNRMC,023649.00,A,3903.91943936,N,11825.63854675,E,0.040,337.8,100817,0.0,E,D*24
$GNVTG,337.835,T,337.835,M,0.04004,N,0.07416,K,D*3C
$GNHDT,114.8768,T*1E
$GNGGA,023649.10,3903.91943843,N,11825.63854678,E,4,13,1.3,2.4657,M,-3.3206,M,01,0275*6C
$GNRMC,023649.10,A,3903.91943843,N,11825.63854678,E,0.033,178.8,100817,0.0,E,D*26
$GNVTG,178.786,T,178.786,M,0.03333,N,0.06172,K,D*3A
$GNHDT,115.5686,T*13
$GNGGA,023649.20,3903.91943999,N,11825.63854828,E,4,13,1.3,2.4609,M,-3.3206,M,01,0275*69
$GNRMC,023649.20,A,3903.91943999,N,11825.63854828,E,0.070,36.9,100817,0.0,E,D*15
$GNVTG,36.903,T,36.903,M,0.07004,N,0.12971,K,D*37
$GNHDT,115.1015,T*1B
$GNGGA,023649.30,3903.91943736,N,11825.63854726,E,4,13,1.3,2.4683,M,-3.3206,M,01,0275*60
$GNRMC,023649.30,A,3903.91943736,N,11825.63854726,E,0.099,196.8,100817,0.0,E,D*23
$GNVTG,196.778,T,196.778,M,0.09877,N,0.18291,K,D*3A
$GNHDT,115.0908,T*1F
$GNGGA,023649.40,3903.91943834,N,11825.63854740,E,4,13,1.3,2.4649,M,-3.3206,M,01,0275*6C
$GNRMC,023649.40,A,3903.91943834,N,11825.63854740,E,0.036,6.3,100817,0.0,E,D*2F
$GNVTG,6.298,T,6.298,M,0.03569,N,0.06610,K,D*30
$GNHDT,115.2581,T*10
$GNGGA,023649.50,3903.91943816,N,11825.63854634,E,4,13,1.3,2.4710,M,-3.3206,M,00,0275*63
$GNRMC,023649.50,A,3903.91943816,N,11825.63854634,E,0.031,257.3,100817,0.0,E,D*2D
$GNVTG,257.261,T,257.261,M,0.03059,N,0.05665,K,D*37
$GNHDT,114.9881,T*17
$GNGGA,023649.60,3903.91943692,N,11825.63854587,E,4,13,1.3,2.4748,M,-3.3206,M,00,0275*64
$GNRMC,023649.60,A,3903.91943692,N,11825.63854587,E,0.046,196.4,100817,0.0,E,D*2E
$GNVTG,196.441,T,196.441,M,0.04631,N,0.08577,K,D*35
$GNHDT,115.2692,T*11
$GNGGA,023649.70,3903.91943727,N,11825.63854536,E,4,13,1.3,2.4755,M,-3.3206,M,00,0275*6C
$GNRMC,023649.70,A,3903.91943727,N,11825.63854536,E,0.019,311.6,100817,0.0,E,D*2F
$GNVTG,311.603,T,311.603,M,0.01894,N,0.03508,K,D*32
$GNHDT,115.4265,T*1B
$GNGGA,023649.80,3903.91943789,N,11825.63854690,E,4,13,1.3,2.4646,M,-3.3206,M,00,0275*6B
$GNRMC,023649.80,A,3903.91943789,N,11825.63854690,E,0.048,62.6,100817,0.0,E,D*18
$GNVTG,62.575,T,62.575,M,0.04850,N,0.08981,K,D*39
$GNHDT,115.5887,T*1C
$GNGGA,023649.90,3903.91943933,N,11825.63854678,E,4,13,1.3,2.4597,M,-3.3206,M,00,0275*6C
$GNRMC,023649.90,A,3903.91943933,N,11825.63854678,E,0.052,356.3,100817,0.0,E,D*2A
$GNVTG,356.342,T,356.342,M,0.05185,N,0.09602,K,D*3C
$GNHDT,115.5278,T*16
$GNGGA,023650.00,3903.91943880,N,11825.63854639,E,4,13,1.3,2.4668,M,-3.3206,M,01,0275*63
$GNZDA,023650.00,10,08,2017,,*77
$GNRMC,023650.00,A,3903.91943880,N,11825.63854639,E,0.022,209.8,100817,0.0,E,D*20
$GNVTG,209.843,T,209.843,M,0.02191,N,0.04058,K,D*3A
$GNHDT,115.3337,T*1A
$GNGGA,023650.10,3903.91943594,N,11825.63854605,E,4,13,1.3,2.4704,M,-3.3206,M,01,0275*6E
$GNRMC,023650.10,A,3903.91943594,N,11825.63854605,E,0.103,185.4,100817,0.0,E,D*2F
$GNVTG,185.417,T,185.417,M,0.10327,N,0.19126,K,D*32
$GNHDT,115.5946,T*10
$GNGGA,023650.20,3903.91943792,N,11825.63854548,E,4,13,1.3,2.4677,M,-3.3206,M,01,0275*66
$GNRMC,023650.20,A,3903.91943792,N,11825.63854548,E,0.073,347.5,100817,0.0,E,D*29
$GNVTG,347.456,T,347.456,M,0.07296,N,0.13513,K,D*37
$GNHDT,115.2778,T*14
$GNGGA,023650.30,3903.91943721,N,11825.63854598,E,4,13,1.3,2.4649,M,-3.3206,M,01,0275*6F
$GNRMC,023650.30,A,3903.91943721,N,11825.63854598,E,0.029,151.3,100817,0.0,E,D*21
$GNVTG,151.322,T,151.322,M,0.02906,N,0.05382,K,D*39
$GNHDT,115.6064,T*1A
$GNGGA,023650.40,3903.91943847,N,11825.63854611,E,4,13,1.3,2.4665,M,-3.3206,M,01,0275*6B
$GNRMC,023650.40,A,3903.91943847,N,11825.63854611,E,0.045,4.5,100817,0.0,E,D*26
$GNVTG,4.544,T,4.544,M,0.04512,N,0.08355,K,D*31
$GNHDT,115.3650,T*1E
$GNGGA,023650.50,3903.91943719,N,11825.63854629,E,4,13,1.3,2.4662,M,-3.3206,M,00,0275*63
$GNRMC,023650.50,A,3903.91943719,N,11825.63854629,E,0.046,173.6,100817,0.0,E,D*29
$GNVTG,173.639,T,173.639,M,0.04607,N,0.08533,K,D*30
$GNHDT,115.2582,T*13
$GNGGA,023650.60,3903.91943600,N,11825.63854658,E,4,13,1.3,2.4665,M,-3.3206,M,00,0275*68
$GNRMC,023650.60,A,3903.91943600,N,11825.63854658,E,0.044,169.2,100817,0.0,E,D*28
$GNVTG,169.216,T,169.216,M,0.04363,N,0.08081,K,D*3B
$GNHDT,115.2526,T*1D
$GNGGA,023650.70,3903.91943726,N,11825.63854633,E,4,13,1.3,2.4699,M,-3.3206,M,00,0275*62
$GNRMC,023650.70,A,3903.91943726,N,11825.63854633,E,0.046,351.4,100817,0.0,E,D*2C
$GNVTG,351.406,T,351.406,M,0.04594,N,0.08507,K,D*3E
$GNHDT,115.5163,T*1F
$GNGGA,023650.80,3903.91943693,N,11825.63854601,E,4,13,1.3,2.4691,M,-3.3206,M,00,0275*6B
$GNRMC,023650.80,A,3903.91943693,N,11825.63854601,E,0.015,216.5,100817,0.0,E,D*28
$GNVTG,216.483,T,216.483,M,0.01511,N,0.02799,K,D*39
$GNHDT,115.4174,T*18
$GNGGA,023650.90,3903.91943666,N,11825.63854668,E,4,13,1.3,2.4685,M,-3.3206,M,00,0275*6A
$GNRMC,023650.90,A,3903.91943666,N,11825.63854668,E,0.021,117.1,100817,0.0,E,D*2D
$GNVTG,117.112,T,117.112,M,0.02112,N,0.03912,K,D*31
$GNHDT,115.4924,T*15
$GNGGA,023651.00,3903.91943748,N,11825.63854714,E,4,13,1.3,2.4659,M,-3.3206,M,01,0275*65
$GNZDA,023651.00,10,08,2017,,*76
$GNRMC,023651.00,A,3903.91943748,N,11825.63854714,E,0.032,23.6,100817,0.0,E,D*11
$GNVTG,23.571,T,23.571,M,0.03217,N,0.05958,K,D*3E
$GNHDT,115.9799,T*10
$GNGGA,023651.10,3903.91943786,N,11825.63854616,E,4,13,1.3,2.4648,M,-3.3206,M,01,0275*65
$GNRMC,023651.10,A,3903.91943786,N,11825.63854616,E,0.031,296.8,100817,0.0,E,D*20
$GNVTG,296.751,T,296.751,M,0.03089,N,0.05722,K,D*38
$GNHDT,115.7667,T*1E
$GNGGA,023651.20,3903.91943609,N,11825.63854684,E,4,13,1.3,2.4700,M,-3.3206,M,01,0275*66
$GNRMC,023651.20,A,3903.91943609,N,11825.63854684,E,0.067,163.2,100817,0.0,E,D*2E
$GNVTG,163.230,T,163.230,M,0.06669,N,0.12351,K,D*33
$GNHDT,115.5689,T*1C
$GNGGA,023651.30,3903.91943695,N,11825.63854693,E,4,13,1.3,2.4676,M,-3.3206,M,01,0275*64
$GNRMC,023651.30,A,3903.91943695,N,11825.63854693,E,0.031,4.3,100817,0.0,E,D*2E
$GNVTG,4.284,T,4.284,M,0.03097,N,0.05737,K,D*33
$GNHDT,115.7803,T*12
$GNGGA,023651.40,3903.91943608,N,11825.63854747,E,4,13,1.3,2.4683,M,-3.3206,M,01,0275*65
$GNRMC,023651.40,A,3903.91943608,N,11825.63854747,E,0.035,153.9,100817,0.0,E,D*28
$GNVTG,153.901,T,153.901,M,0.03479,N,0.06443,K,D*34
$GNHDT,115.8146,T*15
$GNGGA,023651.50,3903.91943711,N,11825.63854620,E,4,13,1.3,2.4698,M,-3.3206,M,00,0275*66
$GNRMC,023651.50,A,3903.91943711,N,11825.63854620,E,0.052,316.0,100817,0.0,E,D*2B
$GNVTG,315.980,T,315.980,M,0.05155,N,0.09548,K,D*3C
$GNHDT,115.6256,T*19
$GNGGA,023651.60,3903.91943814,N,11825.63854640,E,4,13,1.3,2.4633,M,-3.3206,M,00,0275*68
$GNRMC,023651.60,A,3903.91943814,N,11825.63854640,E,0.037,8.9,100817,0.0,E,D*22
$GNVTG,8.873,T,8.873,M,0.03739,N,0.06925,K,D*3E
$GNHDT,115.1915,T*12
$GNGGA,023651.70,3903.91943608,N,11825.63854465,E,4,13,1.3,2.4795,M,-3.3206,M,00,0275*62
$GNRMC,023651.70,A,3903.91943608,N,11825.63854465,E,0.089,213.5,100817,0.0,E,D*24
$GNVTG,213.548,T,213.548,M,0.08884,N,0.16454,K,D*36
$GNHDT,115.6543,T*1A
$GNGGA,023651.80,3903.91943686,N,11825.63854603,E,4,13,1.3,2.4704,M,-3.3206,M,00,0275*61
$GNRMC,023651.80,A,3903.91943686,N,11825.63854603,E,0.048,54.0,100817,0.0,E,D*16
$GNVTG,53.973,T,53.973,M,0.04786,N,0.08863,K,D*30
$GNHDT,115.5548,T*12
$GNGGA,023651.90,3903.91943606,N,11825.63854584,E,4,13,1.3,2.4702,M,-3.3206,M,00,0275*62
$GNRMC,023651.90,A,3903.91943606,N,11825.63854584,E,0.029,190.5,100817,0.0,E,D*28
$GNVTG,190.533,T,190.533,M,0.02916,N,0.05401,K,D*34
$GNHDT,115.4887,T*1D
$GNGGA,023652.00,3903.91943654,N,11825.63854650,E,4,13,1.3,2.4654,M,-3.3206,M,01,0275*66
$GNZDA,023652.00,10,08,2017,,*75
$GNRMC,023652.00,A,3903.91943654,N,11825.63854650,E,0.025,47.3,100817,0.0,E,D*1E
$GNVTG,47.311,T,47.311,M,0.02526,N,0.04677,K,D*39
$GNHDT,116.0295,T*13
$GNGGA,023652.10,3903.91943787,N,11825.63854864,E,4,13,1.3,2.4588,M,-3.3206,M,01,0275*63
$GNRMC,023652.10,A,3903.91943787,N,11825.63854864,E,0.077,51.5,100817,0.0,E,D*1F
$GNVTG,51.502,T,51.502,M,0.07661,N,0.14189,K,D*3B
$GNHDT,115.7331,T*18
$GNGGA,023652.20,3903.91943601,N,11825.63854644,E,4,13,1.3,2.4725,M,-3.3206,M,01,0275*66
$GNRMC,023652.20,A,3903.91943601,N,11825.63854644,E,0.091,222.7,100817,0.0,E,D*23
$GNVTG,222.724,T,222.724,M,0.09105,N,0.16862,K,D*3E
$GNHDT,115.6293,T*10
$GNGGA,023652.30,3903.91943643,N,11825.63854722,E,4,13,1.3,2.4669,M,-3.3206,M,01,0275*69
$GNRMC,023652.30,A,3903.91943643,N,11825.63854722,E,0.027,54.7,100817,0.0,E,D*1B
$GNVTG,54.747,T,54.747,M,0.02669,N,0.04944,K,D*3E
$GNHDT,115.7463,T*18
$GNGGA,023652.40,3903.91943579,N,11825.63854670,E,4,13,1.3,2.4730,M,-3.3206,M,01,0275*6F
$GNRMC,023652.40,A,3903.91943579,N,11825.63854670,E,0.027,212.1,100817,0.0,E,D*26
$GNVTG,212.076,T,212.076,M,0.02731,N,0.05057,K,D*38
$GNHDT,115.8364,T*17
$GNGGA,023652.50,3903.91943678,N,11825.63854678,E,4,13,1.3,2.4700,M,-3.3206,M,00,0275*66
$GNRMC,023652.50,A,3903.91943678,N,11825.63854678,E,0.036,3.8,100817,0.0,E,D*26
$GNVTG,3.772,T,3.772,M,0.03571,N,0.06613,K,D*3A
$GNHDT,115.3481,T*10
$GNGGA,023652.60,3903.91943559,N,11825.63854655,E,4,13,1.3,2.4707,M,-3.3206,M,00,0275*6D
$GNRMC,023652.60,A,3903.91943559,N,11825.63854655,E,0.043,188.7,100817,0.0,E,D*25
$GNVTG,188.730,T,188.730,M,0.04332,N,0.08023,K,D*37
$GNHDT,115.5339,T*12
$GNGGA,023652.70,3903.91943471,N,11825.63854630,E,4,13,1.3,2.4773,M,-3.3206,M,00,0275*67
$GNRMC,023652.70,A,3903.91943471,N,11825.63854630,E,0.032,192.5,100817,0.0,E,D*23
$GNVTG,192.535,T,192.535,M,0.03235,N,0.05991,K,D*3B
$GNHDT,115.7043,T*1E
$GNGGA,023652.80,3903.91943646,N,11825.63854608,E,4,13,1.3,2.4680,M,-3.3206,M,00,0275*68
$GNRMC,023652.80,A,3903.91943646,N,11825.63854608,E,0.063,354.5,100817,0.0,E,D*2D
$GNVTG,354.504,T,354.504,M,0.06318,N,0.11701,K,D*32
$GNHDT,115.8599,T*13
$GNGGA,023652.90,3903.91943793,N,11825.63854692,E,4,13,1.3,2.4597,M,-3.3206,M,00,0275*66
$GNRMC,023652.90,A,3903.91943793,N,11825.63854692,E,0.058,24.1,100817,0.0,E,D*1E
$GNVTG,24.076,T,24.076,M,0.05797,N,0.10735,K,D*34
$GNHDT,115.5724,T*1A
$GNGGA,023653.00,3903.91943768,N,11825.63854689,E,4,13,1.3,2.4621,M,-3.3206,M,01,0275*6F
$GNZDA,023653.00,10,08,2017,,*74
$GNRMC,023653.00,A,3903.91943768,N,11825.63854689,E,0.009,185.3,100817,0.0,E,D*24
$GNVTG,185.322,T,185.322,M,0.00929,N,0.01721,K,D*3F
$GNHDT,115.9164,T*14
$GNGGA,023653.10,3903.91943739,N,11825.63854681,E,4,13,1.3,2.4647,M,-3.3206,M,01,0275*62
$GNRMC,023653.10,A,3903.91943739,N,11825.63854681,E,0.011,192.6,100817,0.0,E,D*23
$GNVTG,192.646,T,192.646,M,0.01057,N,0.01957,K,D*31
$GNHDT,116.3979,T*19
$GNGGA,023653.20,3903.91943873,N,11825.63854781,E,4,13,1.3,2.4638,M,-3.3206,M,01,0275*69
$GNRMC,023653.20,A,3903.91943873,N,11825.63854781,E,0.056,30.0,100817,0.0,E,D*1C
$GNVTG,29.981,T,29.981,M,0.05587,N,0.10348,K,D*39
$GNHDT,115.9668,T*1F
$GNGGA,023653.30,3903.91943704,N,11825.63854591,E,4,13,1.3,2.4679,M,-3.3206,M,01,0275*61
$GNRMC,023653.30,A,3903.91943704,N,11825.63854591,E,0.081,221.1,100817,0.0,E,D*28
$GNVTG,221.099,T,221.099,M,0.08099,N,0.14999,K,D*3C
$GNHDT,115.5786,T*12
$GNGGA,023653.40,3903.91943634,N,11825.63854406,E,4,13,1.3,2.4718,M,-3.3206,M,01,0275*6D
$GNRMC,023653.40,A,3903.91943634,N,11825.63854406,E,0.058,244.1,100817,0.0,E,D*25
$GNVTG,244.146,T,244.146,M,0.05755,N,0.10657,K,D*3F
$GNHDT,115.6345,T*1A
$GNGGA,023653.50,3903.91943614,N,11825.63854418,E,4,13,1.3,2.4749,M,-3.3206,M,00,0275*64
$GNRMC,023653.50,A,3903.91943614,N,11825.63854418,E,0.008,155.1,100817,0.0,E,D*2F
$GNVTG,155.100,T,155.100,M,0.00804,N,0.01489,K,D*30
$GNHDT,115.5184,T*16
$GNGGA,023653.60,3903.91943631,N,11825.63854533,E,4,13,1.3,2.4704,M,-3.3206,M,00,0275*61
$GNRMC,023653.60,A,3903.91943631,N,11825.63854533,E,0.033,79.3,100817,0.0,E,D*16
$GNVTG,79.267,T,79.267,M,0.03263,N,0.06043,K,D*3D
$GNHDT,115.9462,T*17
$GNGGA,023653.70,3903.91943672,N,11825.63854614,E,4,13,1.3,2.4676,M,-3.3206,M,00,0275*65
$GNRMC,023653.70,A,3903.91943672,N,11825.63854614,E,0.027,56.5,100817,0.0,E,D*18
$GNVTG,56.515,T,56.515,M,0.02723,N,0.05042,K,D*3F
$GNHDT,115.8547,T*10
$GNGGA,023653.80,3903.91943794,N,11825.63854652,E,4,13,1.3,2.4608,M,-3.3206,M,00,0275*68
$GNRMC,023653.80,A,3903.91943794,N,11825.63854652,E,0.045,13.9,100817,0.0,E,D*15
$GNVTG,13.915,T,13.915,M,0.04491,N,0.08317,K,D*3D
$GNHDT,115.6101,T*18
$GNGGA,023653.90,3903.91943677,N,11825.63854553,E,4,13,1.3,2.4675,M,-3.3206,M,00,0275*6D
$GNRMC,023653.90,A,3903.91943677,N,11825.63854553,E,0.050,213.4,100817,0.0,E,D*21
$GNVTG,213.405,T,213.405,M,0.05028,N,0.09312,K,D*3E
$GNHDT,115.7077,T*19
$GNGGA,023654.00,3903.91943699,N,11825.63854616,E,4,13,1.3,2.4662,M,-3.3206,M,01,0275*66
$GNZDA,023654.00,10,08,2017,,*73
$GNRMC,023654.00,A,3903.91943699,N,11825.63854616,E,0.019,65.9,100817,0.0,E,D*1E
$GNVTG,65.933,T,65.933,M,0.01919,N,0.03554,K,D*3F
$GNHDT,115.8939,T*15
$GNGGA,023654.10,3903.91943749,N,11825.63854587,E,4,13,1.3,2.4697,M,-3.3206,M,01,0275*6A
$GNRMC,023654.10,A,3903.91943749,N,11825.63854587,E,0.020,335.8,100817,0.0,E,D*25
$GNVTG,335.806,T,335.806,M,0.01993,N,0.03691,K,D*37
$GNHDT,115.9589,T*13
$GNGGA,023654.20,3903.91943554,N,11825.63854586,E,4,13,1.3,2.4685,M,-3.3206,M,01,0275*65
$GNRMC,023654.20,A,3903.91943554,N,11825.63854586,E,0.070,180.1,100817,0.0,E,D*29
$GNVTG,180.119,T,180.119,M,0.07021,N,0.13002,K,D*3C
$GNHDT,115.9557,T*10
$GNGGA,023654.30,3903.91943648,N,11825.63854481,E,4,13,1.3,2.4741,M,-3.3206,M,01,0275*65
$GNRMC,023654.30,A,3903.91943648,N,11825.63854481,E,0.045,319.1,100817,0.0,E,D*24
$GNVTG,319.078,T,319.078,M,0.04494,N,0.08323,K,D*3F
$GNHDT,116.2560,T*1C
$GNGGA,023654.40,3903.91943668,N,11825.63854597,E,4,13,1.3,2.4676,M,-3.3206,M,01,0275*63
$GNRMC,023654.40,A,3903.91943668,N,11825.63854597,E,0.033,77.7,100817,0.0,E,D*1B
$GNVTG,77.654,T,77.654,M,0.03336,N,0.06178,K,D*35
$GNHDT,115.8742,T*17
$GNGGA,023654.50,3903.91943520,N,11825.63854458,E,4,13,1.3,2.4728,M,-3.3206,M,00,0275*64
$GNRMC,023654.50,A,3903.91943520,N,11825.63854458,E,0.066,216.3,100817,0.0,E,D*26
$GNVTG,216.265,T,216.265,M,0.06624,N,0.12267,K,D*3E
$GNHDT,115.7391,T*12
$GNGGA,023654.60,3903.91943390,N,11825.63854301,E,4,13,1.3,2.4866,M,-3.3206,M,00,0275*64
$GNRMC,023654.60,A,3903.91943390,N,11825.63854301,E,0.064,223.2,100817,0.0,E,D*26
$GNVTG,223.212,T,223.212,M,0.06406,N,0.11865,K,D*37
$GNHDT,116.0362,T*1A
$GNGGA,023654.70,3903.91943568,N,11825.63854483,E,4,13,1.3,2.4805,M,-3.3206,M,00,0275*6C
$GNRMC,023654.70,A,3903.91943568,N,11825.63854483,E,0.082,38.4,100817,0.0,E,D*1D
$GNVTG,38.440,T,38.440,M,0.08189,N,0.15166,K,D*35
$GNHDT,115.6736,T*1A
$GNGGA,023654.80,3903.91943396,N,11825.63854298,E,4,13,1.3,2.4898,M,-3.3206,M,00,0275*6C
$GNRMC,023654.80,A,3903.91943396,N,11825.63854298,E,0.081,219.9,100817,0.0,E,D*26
$GNVTG,219.898,T,219.898,M,0.08059,N,0.14926,K,D*34
$GNHDT,116.2845,T*16
$GNGGA,023654.90,3903.91943645,N,11825.63854517,E,4,13,1.3,2.4793,M,-3.3206,M,00,0275*62
$GNRMC,023654.90,A,3903.91943645,N,11825.63854517,E,0.108,34.4,100817,0.0,E,D*1C
$GNVTG,34.354,T,34.354,M,0.10845,N,0.20085,K,D*3F
$GNHDT,116.3004,T*1A
$GNGGA,023655.00,3903.91943676,N,11825.63854499,E,4,13,1.3,2.4758,M,-3.3206,M,01,0275*6B
$GNZDA,023655.00,10,08,2017,,*72
$GNRMC,023655.00,A,3903.91943676,N,11825.63854499,E,0.012,335.6,100817,0.0,E,D*29
$GNVTG,335.602,T,335.602,M,0.01230,N,0.02278,K,D*37
$GNHDT,116.1694,T*17
$GNGGA,023655.10,3903.91943578,N,11825.63854509,E,4,13,1.3,2.4739,M,-3.3206,M,01,0275*68
$GNRMC,023655.10,A,3903.91943578,N,11825.63854509,E,0.036,175.3,100817,0.0,E,D*28
$GNVTG,175.321,T,175.321,M,0.03556,N,0.06585,K,D*33
$GNHDT,116.1541,T*1C
$GNGGA,023655.20,3903.91943563,N,11825.63854589,E,4,13,1.3,2.4779,M,-3.3206,M,01,0275*6D
$GNRMC,023655.20,A,3903.91943563,N,11825.63854589,E,0.023,103.3,100817,0.0,E,D*2C
$GNVTG,103.327,T,103.327,M,0.02307,N,0.04273,K,D*3C
$GNHDT,115.8947,T*1C
$GNGGA,023655.30,3903.91943490,N,11825.63854489,E,4,13,1.3,2.4848,M,-3.3206,M,01,0275*6D
$GNRMC,023655.30,A,3903.91943490,N,11825.63854489,E,0.038,226.8,100817,0.0,E,D*24
$GNVTG,226.796,T,226.796,M,0.03848,N,0.07127,K,D*3C
$GNHDT,116.3387,T*12
$GNGGA,023655.40,3903.91943562,N,11825.63854568,E,4,13,1.3,2.4796,M,-3.3206,M,01,0275*64
$GNRMC,023655.40,A,3903.91943562,N,11825.63854568,E,0.034,40.2,100817,0.0,E,D*15
$GNVTG,40.178,T,40.178,M,0.03418,N,0.06331,K,D*31
$GNHDT,116.5004,T*1C
$GNGGA,023655.50,3903.91943682,N,11825.63854278,E,4,13,1.3,2.4799,M,-3.3206,M,00,0275*60
$GNRMC,023655.50,A,3903.91943682,N,11825.63854278,E,0.092,297.8,100817,0.0,E,D*21
$GNVTG,297.820,T,297.820,M,0.09186,N,0.17013,K,D*3A
$GNHDT,116.6564,T*1C
$GNGGA,023655.60,3903.91943786,N,11825.63854362,E,4,13,1.3,2.4823,M,-3.3206,M,00,0275*62
$GNRMC,023655.60,A,3903.91943786,N,11825.63854362,E,0.044,32.2,100817,0.0,E,D*11
$GNVTG,32.169,T,32.169,M,0.04430,N,0.08204,K,D*35
$GNHDT,117.1297,T*11
$GNGGA,023655.70,3903.91943706,N,11825.63854372,E,4,13,1.3,2.4797,M,-3.3206,M,00,0275*6A
$GNRMC,023655.70,A,3903.91943706,N,11825.63854372,E,0.029,174.5,100817,0.0,E,D*26
$GNVTG,174.483,T,174.483,M,0.02891,N,0.05354,K,D*3D
$GNHDT,116.1519,T*11
$GNGGA,023655.80,3903.91943838,N,11825.63854567,E,4,13,1.3,2.4721,M,-3.3206,M,00,0275*68
$GNRMC,023655.80,A,3903.91943838,N,11825.63854567,E,0.072,48.9,100817,0.0,E,D*15
$GNVTG,48.947,T,48.947,M,0.07241,N,0.13410,K,D*3F
$GNHDT,114.6498,T*1C
$GNGGA,023655.90,3903.91943612,N,11825.63854416,E,4,13,1.3,2.4751,M,-3.3206,M,00,0275*6F
$GNRMC,023655.90,A,3903.91943612,N,11825.63854416,E,0.092,207.4,100817,0.0,E,D*2F
$GNVTG,207.415,T,207.415,M,0.09156,N,0.16957,K,D*3F
$GNHDT,114.8086,T*19
$GNGGA,023656.00,3903.91943624,N,11825.63854426,E,4,13,1.3,2.4759,M,-3.3206,M,01,0275*6A
$GNZDA,023656.00,10,08,2017,,*71
$GNRMC,023656.00,A,3903.91943624,N,11825.63854426,E,0.005,32.1,100817,0.0,E,D*1C
$GNVTG,32.075,T,32.075,M,0.00519,N,0.00962,K,D*38
$GNHDT,115.1053,T*19
$GNGGA,023656.10,3903.91943701,N,11825.63854459,E,4,13,1.3,2.4716,M,-3.3206,M,01,0275*6E
$GNRMC,023656.10,A,3903.91943701,N,11825.63854459,E,0.029,18.7,100817,0.0,E,D*13
$GNVTG,18.719,T,18.719,M,0.02920,N,0.05408,K,D*38
$GNHDT,115.8200,T*14
$GNGGA,023656.20,3903.91944093,N,11825.63854607,E,4,13,1.3,2.4567,M,-3.3206,M,01,0275*6B
$GNRMC,023656.20,A,3903.91944093,N,11825.63854607,E,0.147,16.4,100817,0.0,E,D*16
$GNVTG,16.371,T,16.371,M,0.14678,N,0.27184,K,D*3C
$GNHDT,115.8720,T*13
$GNGGA,023656.30,3903.91944037,N,11825.63854688,E,4,13,1.3,2.4521,M,-3.3206,M,01,0275*61
$GNRMC,023656.30,A,3903.91944037,N,11825.63854688,E,0.030,131.4,100817,0.0,E,D*2B
$GNVTG,131.361,T,131.361,M,0.03032,N,0.05616,K,D*3E
$GNHDT,116.5182,T*13
$GNGGA,023656.40,3903.91944032,N,11825.63854710,E,4,13,1.3,2.4471,M,-3.3206,M,01,0275*67
$GNRMC,023656.40,A,3903.91944032,N,11825.63854710,E,0.006,107.8,100817,0.0,E,D*25
$GNVTG,107.759,T,107.759,M,0.00637,N,0.01180,K,D*32
$GNHDT,116.0147,T*1F
$GNGGA,023656.50,3903.91943890,N,11825.63854632,E,4,13,1.3,2.4562,M,-3.3206,M,00,0275*62
$GNRMC,023656.50,A,3903.91943890,N,11825.63854632,E,0.055,203.2,100817,0.0,E,D*29
$GNVTG,203.167,T,203.167,M,0.05529,N,0.10239,K,D*3A
$GNHDT,115.6455,T*1C
$GNGGA,023656.60,3903.91943952,N,11825.63854412,E,4,13,1.3,2.4632,M,-3.3206,M,00,0275*68
$GNRMC,023656.60,A,3903.91943952,N,11825.63854412,E,0.066,289.8,100817,0.0,E,D*2D
$GNVTG,289.832,T,289.832,M,0.06562,N,0.12154,K,D*3C
$GNHDT,115.9123,T*17
$GNGGA,023656.70,3903.91943738,N,11825.63854218,E,4,13,1.3,2.4747,M,-3.3206,M,00,0275*64
$GNRMC,023656.70,A,3903.91943738,N,11825.63854218,E,0.094,215.1,100817,0.0,E,D*23
$GNVTG,215.144,T,215.144,M,0.09435,N,0.17474,K,D*32
$GNHDT,116.6215,T*1D
$GNGGA,023656.80,3903.91943592,N,11825.63854118,E,4,13,1.3,2.4780,M,-3.3206,M,00,0275*61
$GNRMC,023656.80,A,3903.91943592,N,11825.63854118,E,0.060,208.2,100817,0.0,E,D*29
$GNVTG,208.197,T,208.197,M,0.05955,N,0.11029,K,D*3F
$GNHDT,115.6926,T*15
$GNGGA,023656.90,3903.91943587,N,11825.63854094,E,4,13,1.3,2.4723,M,-3.3206,M,00,0275*68
$GNRMC,023656.90,A,3903.91943587,N,11825.63854094,E,0.007,256.8,100817,0.0,E,D*29
$GNVTG,256.772,T,256.772,M,0.00699,N,0.01295,K,D*31
$GNHDT,115.3341,T*1B
$GNGGA,023657.00,3903.91943539,N,11825.63854097,E,4,13,1.3,2.4796,M,-3.3206,M,01,0275*69
$GNZDA,023657.00,10,08,2017,,*70
$GNRMC,023657.00,A,3903.91943539,N,11825.63854097,E,0.017,176.8,100817,0.0,E,D*27
$GNVTG,176.802,T,176.802,M,0.01735,N,0.03212,K,D*3A
$GNHDT,115.6001,T*19
$GNGGA,023657.10,3903.91943505,N,11825.63853973,E,4,13,1.3,2.4824,M,-3.3206,M,01,0275*65
$GNRMC,023657.10,A,3903.91943505,N,11825.63853973,E,0.037,250.5,100817,0.0,E,D*25
$GNVTG,250.465,T,250.465,M,0.03705,N,0.06862,K,D*33
$GNHDT,115.9507,T*15
$GNGGA,023657.20,3903.91943500,N,11825.63854207,E,4,13,1.3,2.4779,M,-3.3206,M,01,0275*6B
$GNRMC,023657.20,A,3903.91943500,N,11825.63854207,E,0.066,91.6,100817,0.0,E,D*14
$GNVTG,91.557,T,91.557,M,0.06582,N,0.12189,K,D*32
$GNHDT,115.9291,T*1D
$GNGGA,023657.30,3903.91943876,N,11825.63854301,E,4,13,1.3,2.4610,M,-3.3206,M,01,0275*6F
$GNRMC,023657.30,A,3903.91943876,N,11825.63854301,E,0.138,10.9,100817,0.0,E,D*12
$GNVTG,10.933,T,10.933,M,0.13789,N,0.25538,K,D*35
$GNHDT,115.4589,T*1E
$GNGGA,023657.40,3903.91943796,N,11825.63854503,E,4,13,1.3,2.4635,M,-3.3206,M,01,0275*6A
$GNRMC,023657.40,A,3903.91943796,N,11825.63854503,E,0.064,117.1,100817,0.0,E,D*26
$GNVTG,117.135,T,117.135,M,0.06370,N,0.11798,K,D*3C
$GNHDT,115.9947,T*1D
$GNGGA,023657.50,3903.91943835,N,11825.63854488,E,4,14,1.1,2.4640,M,-3.3206,M,00,0275*69
$GNRMC,023657.50,A,3903.91943835,N,11825.63854488,E,0.015,343.1,100817,0.0,E,D*26
$GNVTG,343.052,T,343.052,M,0.01469,N,0.02721,K,D*34
$GNHDT,116.2155,T*1E
$GNGGA,023657.60,3903.91943689,N,11825.63854424,E,4,14,1.1,2.4655,M,-3.3206,M,00,0275*61
$GNRMC,023657.60,A,3903.91943689,N,11825.63854424,E,0.055,198.9,100817,0.0,E,D*22
$GNVTG,198.878,T,198.878,M,0.05518,N,0.10219,K,D*3A$GNHDT,116.4588,T*1C
$GNGGA,023657.70,3903.91943827,N,11825.63854629,E,4,14,1.1,2.4562,M,-3.3206,M,00,0275*62
$GNRMC,023657.70,A,3903.91943827,N,11825.63854629,E,0.076,49.4,100817,0.0,E,D*17
$GNVTG,49.435,T,49.435,M,0.07589,N,0.14055,K,D*3E
$GNHDT,116.6169,T*15
$GNGGA,023657.80,3903.91943912,N,11825.63854698,E,4,14,1.1,2.4519,M,-3.3206,M,00,0275*6C
$GNRMC,023657.80,A,3903.91943912,N,11825.63854698,E,0.036,31.9,100817,0.0,E,D*13
$GNVTG,31.863,T,31.863,M,0.03625,N,0.06713,K,D*39
$GNHDT,116.4602,T*1D
$GNGGA,023657.90,3903.91943613,N,11825.63854873,E,4,14,1.1,2.4497,M,-3.3206,M,00,0275*6F
$GNRMC,023657.90,A,3903.91943613,N,11825.63854873,E,0.118,155.4,100817,0.0,E,D*24
$GNVTG,155.393,T,155.393,M,0.11822,N,0.21894,K,D*36
$GNHDT,116.3302,T*1F
$GNGGA,023658.00,3903.91943976,N,11825.63854963,E,4,14,1.1,2.4436,M,-3.3206,M,01,0275*6F
$GNZDA,023658.00,10,08,2017,,*7F
$GNRMC,023658.00,A,3903.91943976,N,11825.63854963,E,0.133,11.0,100817,0.0,E,D*12
$GNVTG,10.953,T,10.953,M,0.13286,N,0.24605,K,D*33
$GNHDT,114.7930,T*12
$GNGGA,023658.10,3903.91943720,N,11825.63854564,E,4,14,1.1,2.4584,M,-3.3206,M,01,0275*60
$GNRMC,023658.10,A,3903.91943720,N,11825.63854564,E,0.145,230.6,100817,0.0,E,D*23
$GNVTG,230.613,T,230.613,M,0.14500,N,0.26854,K,D*35
$GNHDT,114.6192,T*13
$GNGGA,023658.20,3903.91943494,N,11825.63854048,E,4,14,1.1,2.4853,M,-3.3206,M,01,0275*63
$GNRMC,023658.20,A,3903.91943494,N,11825.63854048,E,0.166,240.6,100817,0.0,E,D*21
$GNVTG,240.622,T,240.622,M,0.16578,N,0.30703,K,D*32
$GNHDT,113.7627,T*1C
$GNGGA,023658.30,3903.91943302,N,11825.63853764,E,4,14,1.1,2.4971,M,-3.3206,M,01,0275*65
$GNRMC,023658.30,A,3903.91943302,N,11825.63853764,E,0.106,229.0,100817,0.0,E,D*29
$GNVTG,229.049,T,229.049,M,0.10569,N,0.19573,K,D*3A
$GNHDT,114.0704,T*1C
$GNGGA,023658.40,3903.91943306,N,11825.63853764,E,4,14,1.1,2.4998,M,-3.3206,M,01,0275*61
$GNRMC,023658.40,A,3903.91943306,N,11825.63853764,E,0.002,5.8,100817,0.0,E,D*2B
$GNVTG,5.774,T,5.774,M,0.00179,N,0.00332,K,D*35
$GNHDT,115.3186,T*12
$GNGGA,023658.50,3903.91943397,N,11825.63853811,E,4,14,1.1,2.4930,M,-3.3206,M,01,0275*67
$GNRMC,023658.50,A,3903.91943397,N,11825.63853811,E,0.035,21.9,100817,0.0,E,D*1C
$GNVTG,21.868,T,21.868,M,0.03525,N,0.06529,K,D*31
$GNHDT,115.1137,T*1A
$GNGGA,023658.60,3903.91943528,N,11825.63854007,E,4,14,1.1,2.4835,M,-3.3206,M,00,0275*6B
$GNRMC,023658.60,A,3903.91943528,N,11825.63854007,E,0.072,49.6,100817,0.0,E,D*17
$GNVTG,49.608,T,49.608,M,0.07219,N,0.13369,K,D*3B
$GNHDT,115.6090,T*11
$GNGGA,023658.70,3903.91943489,N,11825.63853966,E,4,14,1.1,2.4911,M,-3.3206,M,00,0275*6E
$GNRMC,023658.70,A,3903.91943489,N,11825.63853966,E,0.018,219.4,100817,0.0,E,D*2C
$GNVTG,219.405,T,219.405,M,0.01801,N,0.03335,K,D*36
$GNHDT,115.6235,T*1C
$GNGGA,023658.80,3903.91943643,N,11825.63853807,E,4,14,1.1,2.4865,M,-3.3206,M,00,0275*61
$GNRMC,023658.80,A,3903.91943643,N,11825.63853807,E,0.071,321.0,100817,0.0,E,D*20
$GNVTG,321.014,T,321.014,M,0.07117,N,0.13181,K,D*32
$GNHDT,115.8902,T*1D
$GNGGA,023658.90,3903.91943744,N,11825.63854038,E,4,14,1.1,2.4813,M,-3.3206,M,00,0275*64
$GNRMC,023658.90,A,3903.91943744,N,11825.63854038,E,0.074,60.6,100817,0.0,E,D*11
$GNVTG,60.620,T,60.620,M,0.07438,N,0.13775,K,D*37
$GNHDT,115.4708,T*15
$GNGGA,023659.00,3903.91943457,N,11825.63853959,E,4,14,1.1,2.4839,M,-3.3206,M,01,0275*6D
$GNZDA,023659.00,10,08,2017,,*7E
$GNRMC,023659.00,A,3903.91943457,N,11825.63853959,E,0.106,192.0,100817,0.0,E,D*2F
$GNVTG,192.017,T,192.017,M,0.10576,N,0.19586,K,D*3E
$GNHDT,116.1398,T*1E
$GNGGA,023659.10,3903.91943652,N,11825.63854145,E,4,14,1.1,2.4764,M,-3.3206,M,01,0275*6E
$GNRMC,023659.10,A,3903.91943652,N,11825.63854145,E,0.087,36.6,100817,0.0,E,D*1A
$GNVTG,36.590,T,36.590,M,0.08739,N,0.16185,K,D*36
$GNHDT,115.5865,T*10
$GNGGA,023659.20,3903.91943775,N,11825.63854217,E,4,14,1.1,2.4684,M,-3.3206,M,01,0275*62
$GNRMC,023659.20,A,3903.91943775,N,11825.63854217,E,0.049,24.3,100817,0.0,E,D*1D
$GNVTG,24.298,T,24.298,M,0.04863,N,0.09007,K,D*3F
$GNHDT,115.3039,T*17
$GNGGA,023659.30,3903.91943837,N,11825.63854386,E,4,14,1.1,2.4619,M,-3.3206,M,01,0275*67
$GNRMC,023659.30,A,3903.91943837,N,11825.63854386,E,0.052,64.7,100817,0.0,E,D*16
$GNVTG,64.745,T,64.745,M,0.05247,N,0.09717,K,D*34
$GNHDT,114.9625,T*17
$GNGGA,023659.40,3903.91943791,N,11825.63854408,E,4,14,1.1,2.4673,M,-3.3206,M,01,0275*6E
$GNRMC,023659.40,A,3903.91943791,N,11825.63854408,E,0.018,159.3,100817,0.0,E,D*26
$GNVTG,159.281,T,159.281,M,0.01754,N,0.03249,K,D*33
$GNHDT,115.7163,T*1D
$GNGGA,023659.50,3903.91943699,N,11825.63854379,E,4,14,1.1,2.4543,M,-3.3206,M,01,0275*67
$GNRMC,023659.50,A,3903.91943699,N,11825.63854379,E,0.034,193.8,100817,0.0,E,D*2C
$GNVTG,193.800,T,193.800,M,0.03412,N,0.06318,K,D*30
$GNHDT,116.0865,T*16
$GNGGA,023659.60,3903.91943794,N,11825.63854424,E,4,14,1.1,2.4611,M,-3.3206,M,00,0275*62
$GNRMC,023659.60,A,3903.91943794,N,11825.63854424,E,0.036,20.3,100817,0.0,E,D*1C
$GNVTG,20.262,T,20.262,M,0.03618,N,0.06700,K,D*35
$GNHDT,116.1844,T*14
$GNGGA,023659.70,3903.91944002,N,11825.63854467,E,4,14,1.1,2.4629,M,-3.3206,M,00,0275*60
$GNRMC,023659.70,A,3903.91944002,N,11825.63854467,E,0.076,9.3,100817,0.0,E,D*2A
$GNVTG,9.329,T,9.329,M,0.07589,N,0.14055,K,D*3E
$GNHDT,116.3427,T*1F
$GNGGA,023659.80,3903.91943787,N,11825.63854337,E,4,14,1.1,2.4661,M,-3.3206,M,00,0275*6C
$GNRMC,023659.80,A,3903.91943787,N,11825.63854337,E,0.085,205.3,100817,0.0,E,D*28
$GNVTG,205.320,T,205.320,M,0.08545,N,0.15825,K,D*3F
$GNHDT,115.9169,T*19
$GNGGA,023659.90,3903.91943744,N,11825.63854396,E,4,14,1.1,2.4657,M,-3.3206,M,00,0275*6C
$GNRMC,023659.90,A,3903.91943744,N,11825.63854396,E,0.023,133.7,100817,0.0,E,D*23
$GNVTG,133.715,T,133.715,M,0.02269,N,0.04203,K,D*32
$GNHDT,115.7737,T*1A
$GNGGA,023700.00,3903.91943613,N,11825.63854242,E,4,14,1.1,2.4705,M,-3.3206,M,01,0275*64
$GNZDA,023700.00,10,08,2017,,*73
$GNRMC,023700.00,A,3903.91943613,N,11825.63854242,E,0.064,222.5,100817,0.0,E,D*2E
$GNVTG,222.543,T,222.543,M,0.06390,N,0.11834,K,D*3B
$GNHDT,115.9467,T*12
$GNGGA,023700.10,3903.91943716,N,11825.63854285,E,4,14,1.1,2.4649,M,-3.3206,M,01,0275*63
$GNRMC,023700.10,A,3903.91943716,N,11825.63854285,E,0.039,18.3,100817,0.0,E,D*15
$GNVTG,18.316,T,18.316,M,0.03920,N,0.07260,K,D*33
$GNHDT,115.4978,T*1C
$GNGGA,023700.20,3903.91943587,N,11825.63854226,E,4,14,1.1,2.4702,M,-3.3206,M,01,0275*6D
$GNRMC,023700.20,A,3903.91943587,N,11825.63854226,E,0.049,199.8,100817,0.0,E,D*21
$GNVTG,199.815,T,199.815,M,0.04932,N,0.09134,K,D*3B
$GNHDT,116.0781,T*13
$GNGGA,023700.30,3903.91943882,N,11825.63854285,E,4,14,1.1,2.4580,M,-3.3206,M,01,0275*65
$GNRMC,023700.30,A,3903.91943882,N,11825.63854285,E,0.107,8.9,100817,0.0,E,D*22
$GNVTG,8.876,T,8.876,M,0.10744,N,0.19898,K,D*3F
$GNHDT,115.9771,T*16
$GNGGA,023700.40,3903.91943775,N,11825.63854471,E,4,14,1.1,2.4551,M,-3.3206,M,01,0275*64
$GNRMC,023700.40,A,3903.91943775,N,11825.63854471,E,0.065,126.6,100817,0.0,E,D*28
$GNVTG,126.606,T,126.606,M,0.06490,N,0.12020,K,D*32
$GNHDT,115.8701,T*10
$GNGGA,023700.50,3903.91943561,N,11825.63854166,E,4,14,1.1,2.4719,M,-3.3206,M,00,0275*6E
$GNRMC,023700.50,A,3903.91943561,N,11825.63854166,E,0.115,228.1,100817,0.0,E,D*21
$GNVTG,228.069,T,228.069,M,0.11498,N,0.21295,K,D*30
$GNHDT,115.6294,T*17
$GNGGA,023700.60,3903.91943589,N,11825.63854347,E,4,14,1.1,2.4668,M,-3.3206,M,00,0275*6D
$GNRMC,023700.60,A,3903.91943589,N,11825.63854347,E,0.052,78.7,100817,0.0,E,D*16
$GNVTG,78.654,T,78.654,M,0.05189,N,0.09611,K,D*32
$GNHDT,115.8395,T*19
$GNGGA,023700.70,3903.91943707,N,11825.63854427,E,4,14,1.1,2.4645,M,-3.3206,M,00,0275*66
$GNRMC,023700.70,A,3903.91943707,N,11825.63854427,E,0.048,27.8,100817,0.0,E,D*1C
$GNVTG,27.792,T,27.792,M,0.04782,N,0.08856,K,D*32
$GNHDT,115.8251,T*10
$GNGGA,023700.80,3903.91943660,N,11825.63854308,E,4,14,1.1,2.4653,M,-3.3206,M,00,0275*64
$GNRMC,023700.80,A,3903.91943660,N,11825.63854308,E,0.037,242.8,100817,0.0,E,D*20
$GNVTG,242.758,T,242.758,M,0.03729,N,0.06905,K,D*3D
$GNHDT,115.5487,T*10
$GNGGA,023700.90,3903.91943633,N,11825.63854280,E,4,14,1.1,2.4616,M,-3.3206,M,00,0275*63
$GNRMC,023700.90,A,3903.91943633,N,11825.63854280,E,0.012,220.1,100817,0.0,E,D*2C
$GNVTG,220.059,T,220.059,M,0.01235,N,0.02287,K,D*32
$GNHDT,115.6901,T*10
$GNGGA,023701.00,3903.91943605,N,11825.63854227,E,4,14,1.1,2.4639,M,-3.3206,M,01,0275*6F
$GNZDA,023701.00,10,08,2017,,*72
$GNRMC,023701.00,A,3903.91943605,N,11825.63854227,E,0.018,235.0,100817,0.0,E,D*23
$GNVTG,234.995,T,234.995,M,0.01804,N,0.03341,K,D*30
$GNHDT,115.9929,T*15
$GNGGA,023701.10,3903.91943766,N,11825.63854246,E,4,14,1.1,2.4611,M,-3.3206,M,01,0275*67
$GNRMC,023701.10,A,3903.91943766,N,11825.63854246,E,0.058,5.2,100817,0.0,E,D*26
$GNVTG,5.160,T,5.160,M,0.05830,N,0.10796,K,D*3F
$GNHDT,116.0078,T*12
$GNGGA,023701.20,3903.91943871,N,11825.63854424,E,4,14,1.1,2.4554,M,-3.3206,M,01,0275*6D
$GNRMC,023701.20,A,3903.91943871,N,11825.63854424,E,0.063,52.7,100817,0.0,E,D*11
$GNVTG,52.689,T,52.689,M,0.06255,N,0.11584,K,D*35
$GNHDT,115.6890,T*19
$GNGGA,023701.30,3903.91943648,N,11825.63854341,E,4,14,1.1,2.4647,M,-3.3206,M,01,0275*6D
$GNRMC,023701.30,A,3903.91943648,N,11825.63854341,E,0.084,196.0,100817,0.0,E,D*27
$GNVTG,195.987,T,195.987,M,0.08356,N,0.15475,K,D*32
$GNHDT,115.7633,T*1F
$GNGGA,023701.40,3903.91943701,N,11825.63854258,E,4,14,1.1,2.4613,M,-3.3206,M,01,0275*6E
$GNRMC,023701.40,A,3903.91943701,N,11825.63854258,E,0.030,309.1,100817,0.0,E,D*2F
$GNVTG,309.142,T,309.142,M,0.02999,N,0.05553,K,D*35
$GNHDT,115.3309,T*17
$GNGGA,023701.50,3903.91943589,N,11825.63854280,E,4,14,1.1,2.4667,M,-3.3206,M,01,0275*6B
$GNRMC,023701.50,A,3903.91943589,N,11825.63854280,E,0.041,171.6,100817,0.0,E,D*25
$GNVTG,171.550,T,171.550,M,0.04059,N,0.07517,K,D*34
$GNHDT,115.3637,T*1F
$GNGGA,023701.60,3903.91943661,N,11825.63854302,E,4,14,1.1,2.4646,M,-3.3206,M,00,0275*64
$GNRMC,023701.60,A,3903.91943661,N,11825.63854302,E,0.027,13.3,100817,0.0,E,D*18
$GNVTG,13.293,T,13.293,M,0.02663,N,0.04932,K,D*35
$GNHDT,115.6761,T*18
$GNGGA,023701.70,3903.91943684,N,11825.63854250,E,4,14,1.1,2.4628,M,-3.3206,M,00,0275*60
$GNRMC,023701.70,A,3903.91943684,N,11825.63854250,E,0.017,299.8,100817,0.0,E,D*2C
$GNVTG,299.800,T,299.800,M,0.01676,N,0.03103,K,D*3F
$GNHDT,115.4191,T*13
$GNGGA,023701.80,3903.91943779,N,11825.63854235,E,4,14,1.1,2.4596,M,-3.3206,M,00,0275*69
$GNRMC,023701.80,A,3903.91943779,N,11825.63854235,E,0.034,353.3,100817,0.0,E,D*2E
$GNVTG,353.295,T,353.295,M,0.03445,N,0.06380,K,D*33
$GNHDT,115.1899,T*17
$GNGGA,023701.90,3903.91943676,N,11825.63854240,E,4,14,1.1,2.4631,M,-3.3206,M,00,0275*6A
$GNRMC,023701.90,A,3903.91943676,N,11825.63854240,E,0.037,177.8,100817,0.0,E,D*2F
$GNVTG,177.806,T,177.806,M,0.03716,N,0.06883,K,D*3E
$GNHDT,115.2345,T*1E
$GNGGA,023702.00,3903.91943482,N,11825.63854158,E,4,14,1.1,2.4684,M,-3.3206,M,01,0275*6C
$GNZDA,023702.00,10,08,2017,,*71
$GNRMC,023702.00,A,3903.91943482,N,11825.63854158,E,0.073,198.3,100817,0.0,E,D*2C
$GNVTG,198.266,T,198.266,M,0.07349,N,0.13611,K,D*35
$GNHDT,115.6921,T*12
$GNGGA,023702.10,3903.91943702,N,11825.63854356,E,4,14,1.1,2.4576,M,-3.3206,M,01,0275*64
$GNRMC,023702.10,A,3903.91943702,N,11825.63854356,E,0.097,35.1,100817,0.0,E,D*14
$GNVTG,35.086,T,35.086,M,0.09660,N,0.17891,K,D*37
$GNHDT,115.4180,T*13
$GNGGA,023702.20,3903.91943707,N,11825.63854170,E,4,14,1.1,2.4629,M,-3.3206,M,01,0275*6D
$GNRMC,023702.20,A,3903.91943707,N,11825.63854170,E,0.052,271.9,100817,0.0,E,D*27
$GNVTG,271.876,T,271.876,M,0.05226,N,0.09679,K,D*3A
$GNHDT,115.4091,T*12
$GNGGA,023702.30,3903.91943541,N,11825.63854336,E,4,14,1.1,2.4608,M,-3.3206,M,01,0275*6F
$GNRMC,023702.30,A,3903.91943541,N,11825.63854336,E,0.076,141.9,100817,0.0,E,D*20
$GNVTG,141.850,T,141.850,M,0.07553,N,0.13988,K,D*37
$GNHDT,115.6857,T*12
$GNGGA,023702.40,3903.91943489,N,11825.63854126,E,4,14,1.1,2.4641,M,-3.3206,M,01,0275*63
$GNRMC,023702.40,A,3903.91943489,N,11825.63854126,E,0.062,252.1,100817,0.0,E,D*2D
$GNVTG,252.084,T,252.084,M,0.06187,N,0.11459,K,D*38
$GNHDT,115.2864,T*16
$GNGGA,023702.50,3903.91943557,N,11825.63854186,E,4,14,1.1,2.4655,M,-3.3206,M,01,0275*6F
$GNRMC,023702.50,A,3903.91943557,N,11825.63854186,E,0.030,34.3,100817,0.0,E,D*13
$GNVTG,34.299,T,34.299,M,0.02966,N,0.05493,K,D*38
$GNHDT,115.7099,T*19
$GNGGA,023702.60,3903.91943460,N,11825.63854258,E,4,14,1.1,2.4703,M,-3.3206,M,00,0275*6A
$GNRMC,023702.60,A,3903.91943460,N,11825.63854258,E,0.040,149.8,100817,0.0,E,D*22
$GNVTG,149.818,T,149.818,M,0.04012,N,0.07430,K,D*3F
$GNHDT,115.6987,T*1E
$GNGGA,023702.70,3903.91943628,N,11825.63854260,E,4,14,1.1,2.4646,M,-3.3206,M,00,0275*6E
$GNRMC,023702.70,A,3903.91943628,N,11825.63854260,E,0.060,0.5,100817,0.0,E,D*25
$GNVTG,0.508,T,0.508,M,0.06045,N,0.11196,K,D*31
$GNHDT,115.2813,T*16
$GNGGA,023702.80,3903.91943472,N,11825.63854227,E,4,14,1.1,2.4660,M,-3.3206,M,00,0275*6B
$GNRMC,023702.80,A,3903.91943472,N,11825.63854227,E,0.057,189.3,100817,0.0,E,D*26
$GNVTG,189.294,T,189.294,M,0.05688,N,0.10534,K,D*38
$GNHDT,115.0679,T*16
$GNGGA,023702.90,3903.91943488,N,11825.63854097,E,4,14,1.1,2.4611,M,-3.3206,M,00,0275*60
$GNRMC,023702.90,A,3903.91943488,N,11825.63854097,E,0.037,278.5,100817,0.0,E,D*26
$GNVTG,278.534,T,278.534,M,0.03702,N,0.06857,K,D*32
$GNHDT,115.4129,T*10
$GNGGA,023703.00,3903.91943465,N,11825.63854260,E,4,14,1.1,2.4625,M,-3.3206,M,01,0275*67
$GNZDA,023703.00,10,08,2017,,*70
$GNRMC,023703.00,A,3903.91943465,N,11825.63854260,E,0.046,100.0,100817,0.0,E,D*28
$GNVTG,99.969,T,99.969,M,0.04649,N,0.08610,K,D*38
$GNHDT,115.4470,T*19
$GNGGA,023703.10,3903.91943589,N,11825.63854150,E,4,14,1.1,2.4645,M,-3.3206,M,01,0275*63
$GNRMC,023703.10,A,3903.91943589,N,11825.63854150,E,0.054,325.4,100817,0.0,E,D*28
$GNVTG,325.431,T,325.431,M,0.05406,N,0.10013,K,D*3C
$GNHDT,115.5870,T*14
$GNGGA,023703.20,3903.91943484,N,11825.63854259,E,4,14,1.1,2.4707,M,-3.3206,M,01,0275*61
$GNRMC,023703.20,A,3903.91943484,N,11825.63854259,E,0.049,141.3,100817,0.0,E,D*26
$GNVTG,141.345,T,141.345,M,0.04855,N,0.08992,K,D*3E
$GNHDT,115.2846,T*16
$GNGGA,023703.30,3903.91943426,N,11825.63854322,E,4,14,1.1,2.4676,M,-3.3206,M,01,0275*62
$GNRMC,023703.30,A,3903.91943426,N,11825.63854322,E,0.027,139.6,100817,0.0,E,D*20
$GNVTG,139.597,T,139.597,M,0.02738,N,0.05070,K,D*34
$GNHDT,115.7032,T*18
$GNGGA,023703.40,3903.91943490,N,11825.63854305,E,4,14,1.1,2.4660,M,-3.3206,M,01,0275*6A
$GNRMC,023703.40,A,3903.91943490,N,11825.63854305,E,0.024,348.2,100817,0.0,E,D*2C
$GNVTG,348.155,T,348.155,M,0.02354,N,0.04359,K,D*33
$GNHDT,115.4896,T*1D
$GNGGA,023703.50,3903.91943522,N,11825.63854369,E,4,14,1.1,2.4686,M,-3.3206,M,01,0275*61
$GNRMC,023703.50,A,3903.91943522,N,11825.63854369,E,0.021,57.1,100817,0.0,E,D*14
$GNVTG,57.111,T,57.111,M,0.02143,N,0.03969,K,D*39
$GNHDT,115.5901,T*13
$GNGGA,023703.60,3903.91943670,N,11825.63854369,E,4,14,1.1,2.4625,M,-3.3206,M,00,0275*6E
$GNRMC,023703.60,A,3903.91943670,N,11825.63854369,E,0.053,0.1,100817,0.0,E,D*24
$GNVTG,0.117,T,0.117,M,0.05317,N,0.09847,K,D*3A
$GNHDT,115.3512,T*1B
$GNGGA,023703.70,3903.91943557,N,11825.63854271,E,4,14,1.1,2.4690,M,-3.3206,M,00,0275*6F
$GNRMC,023703.70,A,3903.91943557,N,11825.63854271,E,0.049,214.3,100817,0.0,E,D*25
$GNVTG,214.350,T,214.350,M,0.04901,N,0.09077,K,D*3D
$GNHDT,115.3892,T*1E
$GNGGA,023703.80,3903.91943463,N,11825.63854263,E,4,14,1.1,2.4706,M,-3.3206,M,00,0275*6B
$GNRMC,023703.80,A,3903.91943463,N,11825.63854263,E,0.034,183.6,100817,0.0,E,D*2D
$GNVTG,183.646,T,183.646,M,0.03398,N,0.06293,K,D*37
$GNHDT,115.2047,T*1F
$GNGGA,023703.90,3903.91943530,N,11825.63854281,E,4,14,1.1,2.4682,M,-3.3206,M,00,0275*6C
$GNRMC,023703.90,A,3903.91943530,N,11825.63854281,E,0.025,12.1,100817,0.0,E,D*19
$GNVTG,12.147,T,12.147,M,0.02466,N,0.04568,K,D*31
$GNHDT,115.3707,T*1D
$GNGGA,023704.00,3903.91943604,N,11825.63854232,E,4,14,1.1,2.4652,M,-3.3206,M,01,0275*62
$GNZDA,023704.00,10,08,2017,,*77
$GNRMC,023704.00,A,3903.91943604,N,11825.63854232,E,0.030,332.5,100817,0.0,E,D*2A
$GNVTG,332.519,T,332.519,M,0.02985,N,0.05529,K,D*35
$GNHDT,115.5993,T*18
$GNGGA,023704.10,3903.91943695,N,11825.63854313,E,4,14,1.1,2.4609,M,-3.3206,M,01,0275*67
$GNRMC,023704.10,A,3903.91943695,N,11825.63854313,E,0.040,34.4,100817,0.0,E,D*12
$GNVTG,34.427,T,34.427,M,0.03996,N,0.07401,K,D*3F
$GNHDT,116.0012,T*1E
$GNGGA,023704.20,3903.91943752,N,11825.63854376,E,4,14,1.1,2.4598,M,-3.3206,M,01,0275*66
$GNRMC,023704.20,A,3903.91943752,N,11825.63854376,E,0.027,41.2,100817,0.0,E,D*1D
$GNVTG,41.201,T,41.201,M,0.02705,N,0.05010,K,D*3C
$GNHDT,115.2895,T*18
$GNGGA,023704.30,3903.91943562,N,11825.63854311,E,4,14,1.1,2.4654,M,-3.3206,M,01,0275*64
$GNRMC,023704.30,A,3903.91943562,N,11825.63854311,E,0.071,195.1,100817,0.0,E,D*24
$GNVTG,195.146,T,195.146,M,0.07067,N,0.13088,K,D*3C
$GNHDT,115.4544,T*1F
$GNGGA,023704.40,3903.91943607,N,11825.63854378,E,4,14,1.1,2.4585,M,-3.3206,M,01,0275*63
$GNRMC,023704.40,A,3903.91943607,N,11825.63854378,E,0.025,49.7,100817,0.0,E,D*1B
$GNVTG,49.741,T,49.741,M,0.02477,N,0.04587,K,D*30
$GNHDT,115.5130,T*19
$GNGGA,023704.50,3903.91943704,N,11825.63854219,E,4,14,1.1,2.4633,M,-3.3206,M,01,0275*68
$GNRMC,023704.50,A,3903.91943704,N,11825.63854219,E,0.057,308.1,100817,0.0,E,D*2B
$GNVTG,308.088,T,308.088,M,0.05665,N,0.10492,K,D*36
$GNHDT,115.2487,T*17
$GNGGA,023704.60,3903.91943554,N,11825.63854146,E,4,14,1.1,2.4690,M,-3.3206,M,00,0275*6D
$GNRMC,023704.60,A,3903.91943554,N,11825.63854146,E,0.058,200.7,100817,0.0,E,D*26
$GNVTG,200.746,T,200.746,M,0.05755,N,0.10659,K,D*31
$GNHDT,115.4871,T*14
$GNGGA,023704.70,3903.91943589,N,11825.63854168,E,4,14,1.1,2.4606,M,-3.3206,M,00,0275*6F
$GNRMC,023704.70,A,3903.91943589,N,11825.63854168,E,0.014,25.5,100817,0.0,E,D*14
$GNVTG,25.546,T,25.546,M,0.01386,N,0.02566,K,D*33
$GNHDT,115.6761,T*18
$GNGGA,023704.80,3903.91943595,N,11825.63854257,E,4,14,1.1,2.4649,M,-3.3206,M,00,0275*69
$GNRMC,023704.80,A,3903.91943595,N,11825.63854257,E,0.025,84.9,100817,0.0,E,D*1C
$GNVTG,84.857,T,84.857,M,0.02512,N,0.04653,K,D*38
$GNHDT,115.9266,T*15
$GNGGA,023704.90,3903.91943804,N,11825.63854253,E,4,14,1.1,2.4537,M,-3.3206,M,00,0275*63
$GNRMC,023704.90,A,3903.91943804,N,11825.63854253,E,0.075,359.2,100817,0.0,E,D*21
$GNVTG,359.199,T,359.199,M,0.07510,N,0.13909,K,D*39
$GNHDT,115.9176,T*17
$GNGGA,023705.00,3903.91943661,N,11825.63854366,E,4,14,1.1,2.4585,M,-3.3206,M,01,0275*69
$GNZDA,023705.00,10,08,2017,,*76
$GNRMC,023705.00,A,3903.91943661,N,11825.63854366,E,0.060,148.5,100817,0.0,E,D*22
$GNVTG,148.535,T,148.535,M,0.06043,N,0.11192,K,D*33
$GNHDT,115.6178,T*16
$GNGGA,023705.10,3903.91943757,N,11825.63854367,E,4,14,1.1,2.4547,M,-3.3206,M,01,0275*63
$GNRMC,023705.10,A,3903.91943757,N,11825.63854367,E,0.034,0.8,100817,0.0,E,D*27
$GNVTG,0.806,T,0.806,M,0.03450,N,0.06389,K,D*3E
$GNHDT,115.6114,T*1C
$GNGGA,023705.20,3903.91943745,N,11825.63854256,E,4,14,1.1,2.4586,M,-3.3206,M,01,0275*6D
$GNRMC,023705.20,A,3903.91943745,N,11825.63854256,E,0.031,262.6,100817,0.0,E,D*29
$GNVTG,262.565,T,262.565,M,0.03146,N,0.05826,K,D*31
$GNHDT,115.8378,T*1A
$GNGGA,023705.30,3903.91943831,N,11825.63854347,E,4,14,1.1,2.4532,M,-3.3206,M,01,0275*6E
$GNRMC,023705.30,A,3903.91943831,N,11825.63854347,E,0.040,39.7,100817,0.0,E,D*1E
$GNVTG,39.707,T,39.707,M,0.03991,N,0.07391,K,D*36
$GNHDT,115.2445,T*19
$GNGGA,023705.40,3903.91943672,N,11825.63854200,E,4,14,1.1,2.4608,M,-3.3206,M,01,0275*68
$GNRMC,023705.40,A,3903.91943672,N,11825.63854200,E,0.070,215.9,100817,0.0,E,D*23
$GNVTG,215.885,T,215.885,M,0.07032,N,0.13023,K,D*3D
$GNHDT,115.6020,T*1A
$GNGGA,023705.50,3903.91943738,N,11825.63854209,E,4,14,1.1,2.4569,M,-3.3206,M,01,0275*6B
$GNRMC,023705.50,A,3903.91943738,N,11825.63854209,E,0.024,5.9,100817,0.0,E,D*26
$GNVTG,5.942,T,5.942,M,0.02381,N,0.04410,K,D*31
$GNHDT,115.4998,T*12
$GNGGA,023705.60,3903.91943686,N,11825.63854227,E,4,14,1.1,2.4559,M,-3.3206,M,01,0275*63
$GNRMC,023705.60,A,3903.91943686,N,11825.63854227,E,0.019,165.1,100817,0.0,E,D*2C
$GNVTG,165.063,T,165.063,M,0.01942,N,0.03596,K,D*3F
$GNHDT,115.5183,T*11
$GNGGA,023705.70,3903.91943661,N,11825.63854333,E,4,14,1.1,2.4543,M,-3.3206,M,01,0275*64
$GNRMC,023705.70,A,3903.91943661,N,11825.63854333,E,0.031,106.7,100817,0.0,E,D*29
$GNVTG,106.692,T,106.692,M,0.03114,N,0.05768,K,D*33
$GNHDT,115.2498,T*19
$GNGGA,023705.80,3903.91943594,N,11825.63854230,E,4,14,1.1,2.4622,M,-3.3206,M,01,0275*64
$GNRMC,023705.80,A,3903.91943594,N,11825.63854230,E,0.038,229.9,100817,0.0,E,D*24
$GNVTG,229.850,T,229.850,M,0.03762,N,0.06967,K,D*36
$GNHDT,115.5399,T*18
$GNGGA,023705.90,3903.91943666,N,11825.63854385,E,4,14,1.1,2.4598,M,-3.3206,M,01,0275*66
$GNRMC,023705.90,A,3903.91943666,N,11825.63854385,E,0.051,59.0,100817,0.0,E,D*17
$GNVTG,58.966,T,58.966,M,0.05069,N,0.09389,K,D*39
$GNHDT,115.3151,T*18
$GNGGA,023706.00,3903.91943761,N,11825.63854353,E,4,14,1.1,2.4549,M,-3.3206,M,02,0275*6E
$GNZDA,023706.00,10,08,2017,,*75
$GNRMC,023706.00,A,3903.91943761,N,11825.63854353,E,0.035,345.0,100817,0.0,E,D*2C
$GNVTG,345.000,T,345.000,M,0.03536,N,0.06549,K,D*35
$GNHDT,115.7681,T*16
$GNGGA,023706.10,3903.91943912,N,11825.63854295,E,4,14,1.1,2.4515,M,-3.3206,M,02,0275*67
$GNRMC,023706.10,A,3903.91943912,N,11825.63854295,E,0.057,343.5,100817,0.0,E,D*2B
$GNVTG,343.482,T,343.482,M,0.05652,N,0.10467,K,D*38
$GNHDT,115.7761,T*19
$GNGGA,023706.20,3903.91943759,N,11825.63854246,E,4,14,1.1,2.4621,M,-3.3206,M,01,0275*6C
$GNRMC,023706.20,A,3903.91943759,N,11825.63854246,E,0.057,194.0,100817,0.0,E,D*2A
$GNVTG,194.005,T,194.005,M,0.05674,N,0.10509,K,D*35
$GNHDT,115.7964,T*12
$GNGGA,023706.30,3903.91943743,N,11825.63854149,E,4,14,1.1,2.4628,M,-3.3206,M,01,0275*63
$GNRMC,023706.30,A,3903.91943743,N,11825.63854149,E,0.028,258.3,100817,0.0,E,D*24
$GNVTG,258.263,T,258.263,M,0.02800,N,0.05185,K,D*3B
$GNHDT,115.6982,T*1B
$GNGGA,023706.40,3903.91943766,N,11825.63854324,E,4,14,1.1,2.4567,M,-3.3206,M,01,0275*62
$GNRMC,023706.40,A,3903.91943766,N,11825.63854324,E,0.050,80.7,100817,0.0,E,D*11
$GNVTG,80.653,T,80.653,M,0.04989,N,0.09239,K,D*35
$GNHDT,115.6790,T*16
$GNGGA,023706.50,3903.91943604,N,11825.63854162,E,4,14,1.1,2.4627,M,-3.3206,M,01,0275*61
$GNRMC,023706.50,A,3903.91943604,N,11825.63854162,E,0.074,218.1,100817,0.0,E,D*26
$GNVTG,218.053,T,218.053,M,0.07385,N,0.13676,K,D*34
$GNHDT,115.2383,T*14
$GNGGA,023706.60,3903.91943501,N,11825.63854351,E,4,14,1.1,2.4636,M,-3.3206,M,00,0275*67
$GNRMC,023706.60,A,3903.91943501,N,11825.63854351,E,0.065,124.8,100817,0.0,E,D*24
$GNVTG,124.759,T,124.759,M,0.06468,N,0.11978,K,D*32
$GNHDT,115.4652,T*1B
$GNGGA,023706.70,3903.91943603,N,11825.63854241,E,4,14,1.1,2.4608,M,-3.3206,M,00,0275*6A
$GNRMC,023706.70,A,3903.91943603,N,11825.63854241,E,0.048,319.7,100817,0.0,E,D*28
$GNVTG,319.727,T,319.727,M,0.04767,N,0.08829,K,D*31
$GNHDT,115.8396,T*1A
$GNGGA,023706.80,3903.91943660,N,11825.63854315,E,4,14,1.1,2.4592,M,-3.3206,M,00,0275*60
$GNRMC,023706.80,A,3903.91943660,N,11825.63854315,E,0.029,44.9,100817,0.0,E,D*10
$GNVTG,44.863,T,44.863,M,0.02925,N,0.05418,K,D*3C
$GNHDT,115.2876,T*15
$GNGGA,023706.90,3903.91943741,N,11825.63854424,E,4,14,1.1,2.4552,M,-3.3206,M,00,0275*6A
$GNRMC,023706.90,A,3903.91943741,N,11825.63854424,E,0.042,46.6,100817,0.0,E,D*16
$GNVTG,46.568,T,46.568,M,0.04223,N,0.07822,K,D*30
$GNHDT,115.8201,T*15
$GNGGA,023707.00,3903.91943684,N,11825.63854281,E,4,14,1.1,2.4572,M,-3.3206,M,01,0275*60
$GNZDA,023707.00,10,08,2017,,*74
$GNRMC,023707.00,A,3903.91943684,N,11825.63854281,E,0.045,242.9,100817,0.0,E,D*21
$GNVTG,242.913,T,242.913,M,0.04526,N,0.08383,K,D*3D
$GNHDT,115.6442,T*1A
$GNGGA,023707.10,3903.91943604,N,11825.63854317,E,4,14,1.1,2.4650,M,-3.3206,M,01,0275*64
$GNRMC,023707.10,A,3903.91943604,N,11825.63854317,E,0.030,160.5,100817,0.0,E,D*2B
$GNVTG,160.530,T,160.530,M,0.03044,N,0.05638,K,D*33
$GNHDT,115.8870,T*19
$GNGGA,023707.20,3903.91943627,N,11825.63854496,E,4,14,1.1,2.4544,M,-3.3206,M,01,0275*6E
$GNRMC,023707.20,A,3903.91943627,N,11825.63854496,E,0.051,80.4,100817,0.0,E,D*1E
$GNVTG,80.364,T,80.364,M,0.05087,N,0.09422,K,D*3F
$GNHDT,116.3136,T*1A
$GNGGA,023707.30,3903.91943765,N,11825.63854512,E,4,14,1.1,2.4474,M,-3.3206,M,01,0275*67
$GNRMC,023707.30,A,3903.91943765,N,11825.63854512,E,0.050,5.3,100817,0.0,E,D*2E
$GNVTG,5.328,T,5.328,M,0.04978,N,0.09218,K,D*38
$GNHDT,115.9243,T*12
$GNGGA,023707.40,3903.91943775,N,11825.63854448,E,4,14,1.1,2.4486,M,-3.3206,M,01,0275*62
$GNRMC,023707.40,A,3903.91943775,N,11825.63854448,E,0.018,280.8,100817,0.0,E,D*2E
$GNVTG,280.843,T,280.843,M,0.01832,N,0.03393,K,D*3A
$GNHDT,115.5867,T*12
$GNGGA,023707.50,3903.91943656,N,11825.63854392,E,4,14,1.1,2.4558,M,-3.3206,M,01,0275*61
$GNRMC,023707.50,A,3903.91943656,N,11825.63854392,E,0.046,200.2,100817,0.0,E,D*26
$GNVTG,200.194,T,200.194,M,0.04569,N,0.08462,K,D*3E
$GNHDT,115.7685,T*12
$GNGGA,023707.60,3903.91943813,N,11825.63854511,E,4,14,1.1,2.4498,M,-3.3206,M,01,0275*6D
$GNRMC,023707.60,A,3903.91943813,N,11825.63854511,E,0.066,30.6,100817,0.0,E,D*10
$GNVTG,30.585,T,30.585,M,0.06566,N,0.12160,K,D*3F
$GNHDT,115.6644,T*1E
$GNGGA,023707.70,3903.91943661,N,11825.63854439,E,4,14,1.1,2.4533,M,-3.3206,M,01,0275*6C
$GNRMC,023707.70,A,3903.91943661,N,11825.63854439,E,0.058,200.2,100817,0.0,E,D*29
$GNVTG,200.242,T,200.242,M,0.05834,N,0.10805,K,D*3E
$GNHDT,115.5883,T*18
$GNGGA,023707.80,3903.91943598,N,11825.63854342,E,4,14,1.1,2.4524,M,-3.3206,M,01,0275*6B
$GNRMC,023707.80,A,3903.91943598,N,11825.63854342,E,0.035,230.4,100817,0.0,E,D*26
$GNVTG,230.413,T,230.413,M,0.03537,N,0.06550,K,D*3C
$GNHDT,115.6098,T*19
$GNGGA,023707.90,3903.91943755,N,11825.63854537,E,4,14,1.1,2.4473,M,-3.3206,M,01,0275*6E
$GNRMC,023707.90,A,3903.91943755,N,11825.63854537,E,0.078,44.1,100817,0.0,E,D*1D
$GNVTG,44.100,T,44.100,M,0.07844,N,0.14526,K,D*33
$GNHDT,115.6043,T*1F
$GNGGA,023708.00,3903.91943700,N,11825.63854305,E,4,14,1.1,2.4608,M,-3.3206,M,02,0275*62
$GNZDA,023708.00,10,08,2017,,*7B
$GNRMC,023708.00,A,3903.91943700,N,11825.63854305,E,0.068,253.2,100817,0.0,E,D*2A
$GNVTG,253.156,T,253.156,M,0.06771,N,0.12539,K,D*33
$GNHDT,115.9371,T*12
$GNGGA,023708.10,3903.91943733,N,11825.63854457,E,4,14,1.1,2.4495,M,-3.3206,M,02,0275*65
$GNRMC,023708.10,A,3903.91943733,N,11825.63854457,E,0.044,74.2,100817,0.0,E,D*12
$GNVTG,74.159,T,74.159,M,0.04410,N,0.08168,K,D*3E
$GNHDT,115.7608,T*17
$GNGGA,023708.20,3903.91943845,N,11825.63854529,E,4,14,1.1,2.4477,M,-3.3206,M,02,0275*6C
$GNRMC,023708.20,A,3903.91943845,N,11825.63854529,E,0.045,26.8,100817,0.0,E,D*1B
$GNVTG,26.761,T,26.761,M,0.04498,N,0.08331,K,D*30
$GNHDT,115.5740,T*18
$GNGGA,023708.30,3903.91943885,N,11825.63854396,E,4,14,1.1,2.4494,M,-3.3206,M,02,0275*6E
$GNRMC,023708.30,A,3903.91943885,N,11825.63854396,E,0.040,291.1,100817,0.0,E,D*26
$GNVTG,291.068,T,291.068,M,0.03990,N,0.07390,K,D*36
$GNHDT,115.7214,T*1E
$GNGGA,023708.40,3903.91943728,N,11825.63854444,E,4,14,1.1,2.4467,M,-3.3206,M,02,0275*65
$GNRMC,023708.40,A,3903.91943728,N,11825.63854444,E,0.058,166.7,100817,0.0,E,D*25
$GNVTG,166.743,T,166.743,M,0.05792,N,0.10727,K,D*32
$GNHDT,115.6685,T*13
$GNGGA,023708.50,3903.91943722,N,11825.63854416,E,4,14,1.1,2.4527,M,-3.3206,M,02,0275*6C
$GNRMC,023708.50,A,3903.91943722,N,11825.63854416,E,0.008,252.7,100817,0.0,E,D*28
$GNVTG,252.661,T,252.661,M,0.00808,N,0.01497,K,D*33
$GNHDT,115.3830,T*16
$GNGGA,023708.60,3903.91943835,N,11825.63854449,E,4,14,1.1,2.4487,M,-3.3206,M,02,0275*67
$GNRMC,023708.60,A,3903.91943835,N,11825.63854449,E,0.042,12.9,100817,0.0,E,D*1E
$GNVTG,12.890,T,12.890,M,0.04190,N,0.07760,K,D*32
$GNHDT,115.7990,T*19
$GNGGA,023708.70,3903.91943795,N,11825.63854438,E,4,14,1.1,2.4509,M,-3.3206,M,02,0275*62
$GNRMC,023708.70,A,3903.91943795,N,11825.63854438,E,0.015,192.3,100817,0.0,E,D*2D
$GNVTG,192.284,T,192.284,M,0.01487,N,0.02754,K,D*36
$GNHDT,115.6703,T*1C
$GNGGA,023708.80,3903.91943656,N,11825.63854311,E,4,14,1.1,2.4547,M,-3.3206,M,02,0275*65
$GNRMC,023708.80,A,3903.91943656,N,11825.63854311,E,0.061,215.7,100817,0.0,E,D*2B
$GNVTG,215.680,T,215.680,M,0.06126,N,0.11345,K,D*39
$GNHDT,116.0510,T*19
$GNGGA,023708.90,3903.91943881,N,11825.63854355,E,4,14,1.1,2.4479,M,-3.3206,M,02,0275*6C
$GNRMC,023708.90,A,3903.91943881,N,11825.63854355,E,0.082,8.8,100817,0.0,E,D*22
$GNVTG,8.788,T,8.788,M,0.08177,N,0.15143,K,D*33
$GNHDT,115.2723,T*1A
$GNGGA,023709.00,3903.91943687,N,11825.63854358,E,4,14,1.1,2.4493,M,-3.3206,M,03,0275*64
$GNZDA,023709.00,10,08,2017,,*7A
$GNRMC,023709.00,A,3903.91943687,N,11825.63854358,E,0.070,179.5,100817,0.0,E,D*28
$GNVTG,179.467,T,179.467,M,0.06989,N,0.12943,K,D*3B
$GNHDT,115.6422,T*1C
$GNGGA,023709.10,3903.91943908,N,11825.63854287,E,4,14,1.1,2.4499,M,-3.3206,M,03,0275*64
$GNRMC,023709.10,A,3903.91943908,N,11825.63854287,E,0.082,346.0,100817,0.0,E,D*24
$GNVTG,345.982,T,345.982,M,0.08192,N,0.15172,K,D*3A
$GNHDT,115.9001,T*16
$GNGGA,023709.20,3903.91943661,N,11825.63854282,E,4,14,1.1,2.4633,M,-3.3206,M,02,0275*61
$GNRMC,023709.20,A,3903.91943661,N,11825.63854282,E,0.089,180.9,100817,0.0,E,D*28
$GNVTG,180.852,T,180.852,M,0.08890,N,0.16464,K,D*30
$GNHDT,115.6345,T*1A
$GNGGA,023709.30,3903.91943719,N,11825.63854309,E,4,14,1.1,2.4620,M,-3.3206,M,02,0275*6E
$GNRMC,023709.30,A,3903.91943719,N,11825.63854309,E,0.022,19.7,100817,0.0,E,D*1B
$GNVTG,19.653,T,19.653,M,0.02233,N,0.04135,K,D*3B
$GNHDT,115.4840,T*16
$GNGGA,023709.40,3903.91943603,N,11825.63854227,E,4,14,1.1,2.4647,M,-3.3206,M,02,0275*6F
$GNRMC,023709.40,A,3903.91943603,N,11825.63854227,E,0.048,208.7,100817,0.0,E,D*25
$GNVTG,208.685,T,208.685,M,0.04775,N,0.08843,K,D*3E
$GNHDT,115.2210,T*1F
$GNGGA,023709.50,3903.91943501,N,11825.63854034,E,4,14,1.1,2.4619,M,-3.3206,M,01,0275*67
$GNRMC,023709.50,A,3903.91943501,N,11825.63854034,E,0.065,235.9,100817,0.0,E,D*2A
$GNVTG,235.855,T,235.855,M,0.06528,N,0.12090,K,D*3B
$GNHDT,116.0065,T*1E
$GNGGA,023709.60,3903.91943735,N,11825.63854162,E,4,14,1.1,2.4591,M,-3.3206,M,01,0275*60
$GNRMC,023709.60,A,3903.91943735,N,11825.63854162,E,0.092,22.9,100817,0.0,E,D*12
$GNVTG,22.916,T,22.916,M,0.09161,N,0.16966,K,D*39
$GNHDT,115.9471,T*15
$GNGGA,023709.70,3903.91943800,N,11825.63854249,E,4,14,1.1,2.4564,M,-3.3206,M,01,0275*68
$GNRMC,023709.70,A,3903.91943800,N,11825.63854249,E,0.034,46.5,100817,0.0,E,D*12
$GNVTG,46.465,T,46.465,M,0.03375,N,0.06250,K,D*3B
$GNHDT,115.3184,T*10
$GNGGA,023709.80,3903.91943585,N,11825.63854071,E,4,14,1.1,2.4634,M,-3.3206,M,01,0275*68
$GNRMC,023709.80,A,3903.91943585,N,11825.63854071,E,0.092,212.7,100817,0.0,E,D*29
$GNVTG,212.705,T,212.705,M,0.09209,N,0.17054,K,D*3D
$GNHDT,115.7035,T*1F
$GNGGA,023709.90,3903.91943644,N,11825.63854095,E,4,14,1.1,2.4606,M,-3.3206,M,01,0275*6C
$GNRMC,023709.90,A,3903.91943644,N,11825.63854095,E,0.022,17.0,100817,0.0,E,D*17
$GNVTG,17.045,T,17.045,M,0.02248,N,0.04164,K,D*33
$GNHDT,116.1577,T*19
$GNGGA,023710.00,3903.91943789,N,11825.63854033,E,4,14,1.1,2.4528,M,-3.3206,M,02,0275*6D
$GNZDA,023710.00,10,08,2017,,*72
$GNRMC,023710.00,A,3903.91943789,N,11825.63854033,E,0.055,341.5,100817,0.0,E,D*2F
$GNVTG,341.496,T,341.496,M,0.05472,N,0.10134,K,D*3B
$GNHDT,115.9755,T*10
$GNGGA,023710.10,3903.91943755,N,11825.63854050,E,4,14,1.1,2.4560,M,-3.3206,M,02,0275*64
$GNRMC,023710.10,A,3903.91943755,N,11825.63854050,E,0.013,158.1,100817,0.0,E,D*26
$GNVTG,158.135,T,158.135,M,0.01303,N,0.02413,K,D*3D
$GNHDT,115.9912,T*1D
$GNGGA,023710.20,3903.91943678,N,11825.63854024,E,4,14,1.1,2.4587,M,-3.3206,M,02,0275*63
$GNRMC,023710.20,A,3903.91943678,N,11825.63854024,E,0.029,195.1,100817,0.0,E,D*20
$GNVTG,195.104,T,195.104,M,0.02866,N,0.05307,K,D*33
$GNHDT,115.8940,T*1B
$GNGGA,023710.30,3903.91943733,N,11825.63854140,E,4,14,1.1,2.4593,M,-3.3206,M,01,0275*69
$GNRMC,023710.30,A,3903.91943733,N,11825.63854140,E,0.038,58.8,100817,0.0,E,D*15
$GNVTG,58.814,T,58.814,M,0.03817,N,0.07068,K,D*3C
$GNHDT,115.4639,T*16
$GNGGA,023710.40,3903.91943584,N,11825.63854053,E,4,14,1.1,2.4580,M,-3.3206,M,01,0275*61
$GNRMC,023710.40,A,3903.91943584,N,11825.63854053,E,0.059,204.5,100817,0.0,E,D*2E
$GNVTG,204.518,T,204.518,M,0.05878,N,0.10885,K,D*3E
$GNHDT,115.7008,T*11
$GNGGA,023710.50,3903.91943645,N,11825.63854176,E,4,14,1.1,2.4538,M,-3.3206,M,01,0275*6B
$GNRMC,023710.50,A,3903.91943645,N,11825.63854176,E,0.041,57.9,100817,0.0,E,D*16
$GNVTG,57.941,T,57.941,M,0.04082,N,0.07560,K,D*32
$GNHDT,115.9424,T*15
$GNGGA,023710.60,3903.91943576,N,11825.63854023,E,4,14,1.1,2.4612,M,-3.3206,M,00,0275*60
$GNRMC,023710.60,A,3903.91943576,N,11825.63854023,E,0.049,240.3,100817,0.0,E,D*21
$GNVTG,240.343,T,240.343,M,0.04946,N,0.09160,K,D*39
$GNHDT,115.8146,T*15
$GNGGA,023710.70,3903.91943496,N,11825.63853940,E,4,14,1.1,2.4645,M,-3.3206,M,00,0275*67
$GNRMC,023710.70,A,3903.91943496,N,11825.63853940,E,0.037,218.9,100817,0.0,E,D*2A
$GNVTG,218.915,T,218.915,M,0.03723,N,0.06894,K,D*3E
$GNHDT,116.1047,T*1F
$GNGGA,023710.80,3903.91943598,N,11825.63854100,E,4,14,1.1,2.4619,M,-3.3206,M,00,0275*65
$GNRMC,023710.80,A,3903.91943598,N,11825.63854100,E,0.058,50.6,100817,0.0,E,D*19
$GNVTG,50.619,T,50.619,M,0.05814,N,0.10767,K,D*37
$GNHDT,115.9034,T*10
$GNGGA,023710.90,3903.91943660,N,11825.63854218,E,4,14,1.1,2.4595,M,-3.3206,M,00,0275*6D
$GNRMC,023710.90,A,3903.91943660,N,11825.63854218,E,0.040,56.1,100817,0.0,E,D*1E
$GNVTG,56.110,T,56.110,M,0.03975,N,0.07361,K,D*33
$GNHDT,116.0611,T*1B
$GNGGA,023711.00,3903.91943520,N,11825.63854137,E,4,14,1.1,2.4612,M,-3.3206,M,01,0275*61
$GNZDA,023711.00,10,08,2017,,*73
$GNRMC,023711.00,A,3903.91943520,N,11825.63854137,E,0.055,204.2,100817,0.0,E,D*2D
$GNVTG,204.214,T,204.214,M,0.05524,N,0.10231,K,D*3F
$GNHDT,115.5524,T*18
$GNGGA,023711.10,3903.91943361,N,11825.63854083,E,4,14,1.1,2.4633,M,-3.3206,M,01,0275*6E
$GNRMC,023711.10,A,3903.91943361,N,11825.63854083,E,0.059,194.9,100817,0.0,E,D*2C
$GNVTG,194.935,T,194.935,M,0.05917,N,0.10958,K,D*37
$GNHDT,115.6482,T*16
$GNGGA,023711.20,3903.91943486,N,11825.63853956,E,4,14,1.1,2.4632,M,-3.3206,M,01,0275*64
$GNRMC,023711.20,A,3903.91943486,N,11825.63853956,E,0.057,321.6,100817,0.0,E,D*2A
$GNVTG,321.596,T,321.596,M,0.05726,N,0.10604,K,D*3D
$GNHDT,115.8653,T*16
$GNGGA,023711.30,3903.91943640,N,11825.63854135,E,4,14,1.1,2.4616,M,-3.3206,M,01,0275*61
$GNRMC,023711.30,A,3903.91943640,N,11825.63854135,E,0.075,42.1,100817,0.0,E,D*18
$GNVTG,42.124,T,42.124,M,0.07493,N,0.13878,K,D*34
D
4.214,M,0.05524,N,0.10231,K,D*3F
151.3,100817,0.0,E,A*21
$GNVTG,151.281,T,151.281,M,0.03564,N,0.06601,K,A*38
$GNH$GNHDT,115.6602,T*1C
$GNGGA,023711.40,3903.91943469,N,11825.63854051,E,4,14,1.1,2.4578,M,-3.3206,M,01,0275*67
$GNRMC,023711.40,A,3903.91943469,N,11825.63854051,E,0.066,200.8,100817,0.0,E,D*2A
